[{
  "id": "0022fc3b-598f-4bb5-bb69-1b7d1b9b5202",
  "name": "The Kaffa Lovers",
  "city": "taipei",
  "wifi": 4.5,
  "seat": 5,
  "quiet": 4,
  "tasty": 5,
  "cheap": 3.5,
  "music": 5,
  "url": "https://www.facebook.com/thekaffalovers/?fref=ts",
  "address": "台北市中正區金山北路3號",
  "latitude": "25.04435400",
  "longitude": "121.53045590"
},
{
  "id": "01af53e4-5472-45ef-b05b-2e642ea61639",
  "name": "啡創工廠 Future Factory",
  "city": "taipei",
  "wifi": 5,
  "seat": 4.5,
  "quiet": 3.5,
  "tasty": 5,
  "cheap": 4,
  "music": 4.5,
  "url": "https://www.facebook.com/future.factory.coffee",
  "address": "台北市大同區民族西路31巷18號",
  "latitude": "25.06916700",
  "longitude": "121.51959800"
},
{
  "id": "0229ffc1-3917-4999-ba50-6c67c81acd6c",
  "name": "三宜咖啡館 Triple E Cafe",
  "city": "taipei",
  "wifi": 3,
  "seat": 4,
  "quiet": 3,
  "tasty": 4,
  "cheap": 4,
  "music": 4,
  "url": "https://m.facebook.com/tripleEcafe/?locale2=zh_TW",
  "address": "台北市北投區大業路719-1號1樓（捷運新北投站）",
  "latitude": "25.13748390",
  "longitude": "121.50208500"
},
{
  "id": "04111f17-09e5-4989-b31f-974fa2406518",
  "name": "牧童咖啡 mutto coffee(福德店)",
  "city": "taipei",
  "wifi": 4,
  "seat": 3,
  "quiet": 3,
  "tasty": 4,
  "cheap": 5,
  "music": 4,
  "url": "https://www.facebook.com/muttocoffee",
  "address": "新北市汐止區福德一路106巷9號",
  "latitude": "25.06967790",
  "longitude": "121.63893710"
},
{
  "id": "04425079-f72b-4dbf-a835-b8a5036b7815",
  "name": "IT Cafe",
  "city": "taipei",
  "wifi": 5,
  "seat": 5,
  "quiet": 4,
  "tasty": 3,
  "cheap": 1,
  "music": 3,
  "url": "https://www.facebook.com/itcafe2/?fref=ts",
  "address": "台北市中山區明水路575號.B1",
  "latitude": "25.07983050",
  "longitude": "121.55191340"
}]
